{
  "meta": {
    "source": "MTR official workbook LightRail_Stops plus local coordinate matching",
    "sourceFile": "mtr_official_master_v10.xlsx / LightRail_Stops",
    "coordinateSources": "Hong Kong Community GTFS stops.txt, derived from MTR/OpenStreetMap open data",
    "routeSequenceSource": "OpenStreetMap Hong Kong Light Rail route relations",
    "stopCount": 68,
    "patternCount": 20,
    "missingStopCodes": [],
    "generatedTimestamp": "2026-07-07T09:54:49.306Z",
    "coordinateUpdatedCount": 68
  },
  "stops": [
    {
      "id": "001",
      "code": "FEP",
      "nameZh": "屯門碼頭",
      "nameEn": "Tuen Mun Ferry Pier",
      "nameTc": "屯門碼頭站",
      "lat": 22.3725334,
      "lng": 113.9666595
    },
    {
      "id": "010",
      "code": "MEG",
      "nameZh": "美樂",
      "nameEn": "Melody Garden",
      "nameTc": "美樂站",
      "lat": 22.3750618,
      "lng": 113.9611818
    },
    {
      "id": "015",
      "code": "BUT",
      "nameZh": "蝴蝶",
      "nameEn": "Butterfly",
      "nameTc": "蝴蝶站",
      "lat": 22.378153,
      "lng": 113.9617261
    },
    {
      "id": "020",
      "code": "LRD",
      "nameZh": "輕鐵車廠",
      "nameEn": "Light Rail Depot",
      "nameTc": "輕鐵車廠站",
      "lat": 22.3818312,
      "lng": 113.9633523
    },
    {
      "id": "030",
      "code": "LUM",
      "nameZh": "龍門",
      "nameEn": "Lung Mun",
      "nameTc": "龍門站",
      "lat": 22.3852754,
      "lng": 113.9650155
    },
    {
      "id": "040",
      "code": "TSS",
      "nameZh": "青山村",
      "nameEn": "Tsing Shan Tsuen",
      "nameTc": "青山村站",
      "lat": 22.3903668,
      "lng": 113.9669957
    },
    {
      "id": "050",
      "code": "TWN",
      "nameZh": "青雲",
      "nameEn": "Tsing Wun",
      "nameTc": "青雲站",
      "lat": 22.394355,
      "lng": 113.9674427
    },
    {
      "id": "060",
      "code": "KIN",
      "nameZh": "建安",
      "nameEn": "Kin On",
      "nameTc": "建安站",
      "lat": 22.3951896,
      "lng": 113.9689046
    },
    {
      "id": "070",
      "code": "HOT",
      "nameZh": "河田",
      "nameEn": "Ho Tin",
      "nameTc": "河田站",
      "lat": 22.3967567,
      "lng": 113.9728873
    },
    {
      "id": "075",
      "code": "CYB",
      "nameZh": "蔡意橋",
      "nameEn": "Choy Yee Bridge",
      "nameTc": "蔡意橋站",
      "lat": 22.3998135,
      "lng": 113.9741138
    },
    {
      "id": "080",
      "code": "AFF",
      "nameZh": "澤豐",
      "nameEn": "Affluence",
      "nameTc": "澤豐站",
      "lat": 22.4035202,
      "lng": 113.975831
    },
    {
      "id": "090",
      "code": "TMH",
      "nameZh": "屯門醫院",
      "nameEn": "Tuen Mun Hospital",
      "nameTc": "屯門醫院站",
      "lat": 22.4078144,
      "lng": 113.9770954
    },
    {
      "id": "100",
      "code": "SIH",
      "nameZh": "兆康",
      "nameEn": "Siu Hong",
      "nameTc": "兆康站",
      "lat": 22.4119738,
      "lng": 113.9784003
    },
    {
      "id": "110",
      "code": "KEL",
      "nameZh": "麒麟",
      "nameEn": "Kei Lun",
      "nameTc": "麒麟站",
      "lat": 22.4110146,
      "lng": 113.9763848
    },
    {
      "id": "120",
      "code": "CHC",
      "nameZh": "青松",
      "nameEn": "Ching Chung",
      "nameTc": "青松站",
      "lat": 22.4073283,
      "lng": 113.9725636
    },
    {
      "id": "130",
      "code": "KIS",
      "nameZh": "建生",
      "nameEn": "Kin Sang",
      "nameTc": "建生站",
      "lat": 22.4067479,
      "lng": 113.9691898
    },
    {
      "id": "140",
      "code": "TIK",
      "nameZh": "田景",
      "nameEn": "Tin King",
      "nameTc": "田景站",
      "lat": 22.4076484,
      "lng": 113.9664372
    },
    {
      "id": "150",
      "code": "LEK",
      "nameZh": "良景",
      "nameEn": "Leung King",
      "nameTc": "良景站",
      "lat": 22.4066563,
      "lng": 113.9635936
    },
    {
      "id": "160",
      "code": "SNW",
      "nameZh": "新圍",
      "nameEn": "San Wai",
      "nameTc": "新圍站",
      "lat": 22.4052659,
      "lng": 113.9644805
    },
    {
      "id": "170",
      "code": "SHI",
      "nameZh": "石排",
      "nameEn": "Shek Pai",
      "nameTc": "石排站",
      "lat": 22.4014161,
      "lng": 113.967782
    },
    {
      "id": "180",
      "code": "SKN",
      "nameZh": "山景(北)",
      "nameEn": "Shan King (North)",
      "nameTc": "山景(北)站",
      "lat": 22.3984819,
      "lng": 113.9666623
    },
    {
      "id": "190",
      "code": "SKS",
      "nameZh": "山景(南)",
      "nameEn": "Shan King (South)",
      "nameTc": "山景(南)站",
      "lat": 22.3966967,
      "lng": 113.9660737
    },
    {
      "id": "200",
      "code": "MIK",
      "nameZh": "鳴琴",
      "nameEn": "Ming Kum",
      "nameTc": "鳴琴站",
      "lat": 22.3971513,
      "lng": 113.9673172
    },
    {
      "id": "212",
      "code": "TAH",
      "nameZh": "大興(北)",
      "nameEn": "Tai Hing (North)",
      "nameTc": "大興(北)站",
      "lat": 22.4039179,
      "lng": 113.9704597
    },
    {
      "id": "220",
      "code": "TAI",
      "nameZh": "大興(南)",
      "nameEn": "Tai Hing (South)",
      "nameTc": "大興(南)站",
      "lat": 22.4027052,
      "lng": 113.9719894
    },
    {
      "id": "230",
      "code": "NGW",
      "nameZh": "銀圍",
      "nameEn": "Ngan Wai",
      "nameTc": "銀圍站",
      "lat": 22.4024199,
      "lng": 113.9748548
    },
    {
      "id": "240",
      "code": "SIU",
      "nameZh": "兆禧",
      "nameEn": "Siu Hei",
      "nameTc": "兆禧站",
      "lat": 22.3752272,
      "lng": 113.9668501
    },
    {
      "id": "250",
      "code": "TMS",
      "nameZh": "屯門泳池",
      "nameEn": "Tuen Mun Swimming Pool",
      "nameTc": "屯門泳池站",
      "lat": 22.3812447,
      "lng": 113.9703558
    },
    {
      "id": "260",
      "code": "GOG",
      "nameZh": "豐景園",
      "nameEn": "Goodview Garden",
      "nameTc": "豐景園站",
      "lat": 22.3833279,
      "lng": 113.9730479
    },
    {
      "id": "265",
      "code": "SIL",
      "nameZh": "兆麟",
      "nameEn": "Siu Lun",
      "nameTc": "兆麟站",
      "lat": 22.3845814,
      "lng": 113.9750578
    },
    {
      "id": "270",
      "code": "ONT",
      "nameZh": "安定",
      "nameEn": "On Ting",
      "nameTc": "安定站",
      "lat": 22.3875746,
      "lng": 113.9750826
    },
    {
      "id": "275",
      "code": "YAO",
      "nameZh": "友愛",
      "nameEn": "Yau Oi",
      "nameTc": "友愛站",
      "lat": 22.3867019,
      "lng": 113.9735852
    },
    {
      "id": "280",
      "code": "TCE",
      "nameZh": "市中心",
      "nameEn": "Town Centre",
      "nameTc": "市中心站",
      "lat": 22.3913037,
      "lng": 113.9748608
    },
    {
      "id": "295",
      "code": "TUM",
      "nameZh": "屯門",
      "nameEn": "Tuen Mun",
      "nameTc": "屯門站",
      "lat": 22.3938077,
      "lng": 113.9730692
    },
    {
      "id": "300",
      "code": "PUI",
      "nameZh": "杯渡",
      "nameEn": "Pui To",
      "nameTc": "杯渡站",
      "lat": 22.3947007,
      "lng": 113.9767772
    },
    {
      "id": "310",
      "code": "HFT",
      "nameZh": "何福堂",
      "nameEn": "Hoh Fuk Tong",
      "nameTc": "何福堂站",
      "lat": 22.3974043,
      "lng": 113.9774588
    },
    {
      "id": "320",
      "code": "SAH",
      "nameZh": "新墟",
      "nameEn": "San Hui",
      "nameTc": "新墟站",
      "lat": 22.4002502,
      "lng": 113.9780179
    },
    {
      "id": "330",
      "code": "PRV",
      "nameZh": "景峰",
      "nameEn": "Prime View",
      "nameTc": "景峰站",
      "lat": 22.4031419,
      "lng": 113.9794346
    },
    {
      "id": "340",
      "code": "FUT",
      "nameZh": "鳳地",
      "nameEn": "Fung Tei",
      "nameTc": "鳳地站",
      "lat": 22.4067658,
      "lng": 113.9787706
    },
    {
      "id": "350",
      "code": "LAT",
      "nameZh": "藍地",
      "nameEn": "Lam Tei",
      "nameTc": "藍地站",
      "lat": 22.4184953,
      "lng": 113.9817121
    },
    {
      "id": "360",
      "code": "NAW",
      "nameZh": "泥圍",
      "nameEn": "Nai Wai",
      "nameTc": "泥圍站",
      "lat": 22.4236166,
      "lng": 113.9863554
    },
    {
      "id": "370",
      "code": "CUW",
      "nameZh": "鍾屋村",
      "nameEn": "Chung Uk Tsuen",
      "nameTc": "鍾屋村站",
      "lat": 22.4296983,
      "lng": 113.9922035
    },
    {
      "id": "380",
      "code": "HSK",
      "nameZh": "洪水橋",
      "nameEn": "Hung Shui Kiu",
      "nameTc": "洪水橋站",
      "lat": 22.4336572,
      "lng": 113.9974391
    },
    {
      "id": "390",
      "code": "TFT",
      "nameZh": "塘坊村",
      "nameEn": "Tong Fong Tsuen",
      "nameTc": "塘坊村站",
      "lat": 22.4400905,
      "lng": 114.0070936
    },
    {
      "id": "400",
      "code": "PIS",
      "nameZh": "屏山",
      "nameEn": "Ping Shan",
      "nameTc": "屏山站",
      "lat": 22.4427957,
      "lng": 114.0117742
    },
    {
      "id": "425",
      "code": "HMT",
      "nameZh": "坑尾村",
      "nameEn": "Hang Mei Tsuen",
      "nameTc": "坑尾村站",
      "lat": 22.4451156,
      "lng": 114.0056138
    },
    {
      "id": "430",
      "code": "TIS",
      "nameZh": "天水圍",
      "nameEn": "Tin Shui Wai",
      "nameTc": "天水圍站",
      "lat": 22.4494881,
      "lng": 114.00591
    },
    {
      "id": "435",
      "code": "TIT",
      "nameZh": "天慈",
      "nameEn": "Tin Tsz",
      "nameTc": "天慈站",
      "lat": 22.4527465,
      "lng": 114.006036
    },
    {
      "id": "445",
      "code": "TIY",
      "nameZh": "天耀",
      "nameEn": "Tin Yiu",
      "nameTc": "天耀站",
      "lat": 22.4503653,
      "lng": 114.0027833
    },
    {
      "id": "448",
      "code": "LOC",
      "nameZh": "樂湖",
      "nameEn": "Locwood",
      "nameTc": "樂湖站",
      "lat": 22.4530876,
      "lng": 114.0011278
    },
    {
      "id": "450",
      "code": "TIW",
      "nameZh": "天湖",
      "nameEn": "Tin Wu",
      "nameTc": "天湖站",
      "lat": 22.4549411,
      "lng": 114.0056769
    },
    {
      "id": "455",
      "code": "GIN",
      "nameZh": "銀座",
      "nameEn": "Ginza",
      "nameTc": "銀座站",
      "lat": 22.4575383,
      "lng": 114.0049475
    },
    {
      "id": "460",
      "code": "TSH",
      "nameZh": "天瑞",
      "nameEn": "Tin Shui",
      "nameTc": "天瑞站",
      "lat": 22.4558962,
      "lng": 113.9994144
    },
    {
      "id": "468",
      "code": "CHF",
      "nameZh": "頌富",
      "nameEn": "Chung Fu",
      "nameTc": "頌富站",
      "lat": 22.4619992,
      "lng": 113.9970051
    },
    {
      "id": "480",
      "code": "TIF",
      "nameZh": "天富",
      "nameEn": "Tin Fu",
      "nameTc": "天富站",
      "lat": 22.4645568,
      "lng": 113.9976819
    },
    {
      "id": "490",
      "code": "CHE",
      "nameZh": "翠湖",
      "nameEn": "Chestwood",
      "nameTc": "翠湖站",
      "lat": 22.4596684,
      "lng": 113.9995899
    },
    {
      "id": "500",
      "code": "TWI",
      "nameZh": "天榮",
      "nameEn": "Tin Wing",
      "nameTc": "天榮站",
      "lat": 22.4597405,
      "lng": 114.0023817
    },
    {
      "id": "510",
      "code": "TYT",
      "nameZh": "天悅",
      "nameEn": "Tin Yuet",
      "nameTc": "天悅站",
      "lat": 22.4627676,
      "lng": 114.001595
    },
    {
      "id": "520",
      "code": "TISU",
      "nameZh": "天秀",
      "nameEn": "Tin Sau",
      "nameTc": "天秀站",
      "lat": 22.4655254,
      "lng": 114.0028777
    },
    {
      "id": "530",
      "code": "WEP",
      "nameZh": "濕地公園",
      "nameEn": "Wetland Park",
      "nameTc": "濕地公園站",
      "lat": 22.4695421,
      "lng": 114.0025104
    },
    {
      "id": "540",
      "code": "TIH",
      "nameZh": "天恆",
      "nameEn": "Tin Heng",
      "nameTc": "天恆站",
      "lat": 22.4697143,
      "lng": 114.0007733
    },
    {
      "id": "550",
      "code": "TIAT",
      "nameZh": "天逸",
      "nameEn": "Tin Yat",
      "nameTc": "天逸站",
      "lat": 22.4670133,
      "lng": 113.9988215
    },
    {
      "id": "560",
      "code": "SPW",
      "nameZh": "水邊圍",
      "nameEn": "Shui Pin Wai",
      "nameTc": "水邊圍站",
      "lat": 22.4444307,
      "lng": 114.0199068
    },
    {
      "id": "570",
      "code": "FNR",
      "nameZh": "豐年路",
      "nameEn": "Fung Nin Road",
      "nameTc": "豐年路站",
      "lat": 22.4445455,
      "lng": 114.0238842
    },
    {
      "id": "580",
      "code": "HLR",
      "nameZh": "康樂路",
      "nameEn": "Hong Lok Road",
      "nameTc": "康樂路站",
      "lat": 22.444527,
      "lng": 114.0266578
    },
    {
      "id": "590",
      "code": "TTR",
      "nameZh": "大棠路",
      "nameEn": "Tai Tong Road",
      "nameTc": "大棠路站",
      "lat": 22.4445026,
      "lng": 114.0289746
    },
    {
      "id": "600",
      "code": "YUL",
      "nameZh": "元朗",
      "nameEn": "Yuen Long",
      "nameTc": "元朗站",
      "lat": 22.4457565,
      "lng": 114.0346217
    },
    {
      "id": "920",
      "code": "SAS",
      "nameZh": "三聖",
      "nameEn": "Sam Shing",
      "nameTc": "三聖站",
      "lat": 22.3827864,
      "lng": 113.976693
    }
  ],
  "patterns": [
    {
      "provider": "LRT",
      "id": "OSM-LRT:505:3515354",
      "route": "505",
      "bound": "1",
      "serviceType": "1",
      "origin": "兆康",
      "destination": "三聖",
      "originEn": "Siu Hong",
      "destinationEn": "Sam Shing",
      "stopIds": [
        "SIH",
        "CHC",
        "KIS",
        "TIK",
        "LEK",
        "SNW",
        "SHI",
        "MIK",
        "KIN",
        "TUM",
        "TCE",
        "ONT",
        "SIL",
        "SAS"
      ],
      "stopCount": 14,
      "relationId": 3515354
    },
    {
      "provider": "LRT",
      "id": "OSM-LRT:505:6481282",
      "route": "505",
      "bound": "0",
      "serviceType": "1",
      "origin": "三聖",
      "destination": "兆康",
      "originEn": "Sam Shing",
      "destinationEn": "Siu Hong",
      "stopIds": [
        "SAS",
        "SIL",
        "ONT",
        "TCE",
        "TUM",
        "KIN",
        "SKS",
        "SKN",
        "SHI",
        "SNW",
        "LEK",
        "TIK",
        "KIS",
        "CHC",
        "KEL",
        "SIH"
      ],
      "stopCount": 16,
      "relationId": 6481282
    },
    {
      "provider": "LRT",
      "id": "OSM-LRT:507:6481316",
      "route": "507",
      "bound": "1",
      "serviceType": "1",
      "origin": "田景",
      "destination": "屯門碼頭",
      "originEn": "Tin King",
      "destinationEn": "Tuen Mun Ferry Pier",
      "stopIds": [
        "TIK",
        "LEK",
        "SNW",
        "TAH",
        "TAI",
        "NGW",
        "CYB",
        "HOT",
        "TUM",
        "TCE",
        "ONT",
        "SIL",
        "GOG",
        "TMS",
        "SIU",
        "FEP"
      ],
      "stopCount": 16,
      "relationId": 6481316
    },
    {
      "provider": "LRT",
      "id": "OSM-LRT:507:3679916",
      "route": "507",
      "bound": "0",
      "serviceType": "1",
      "origin": "屯門碼頭",
      "destination": "田景",
      "originEn": "Tuen Mun Ferry Pier",
      "destinationEn": "Tin King",
      "stopIds": [
        "FEP",
        "SIU",
        "TMS",
        "GOG",
        "SIL",
        "ONT",
        "TCE",
        "TUM",
        "HOT",
        "CYB",
        "NGW",
        "TAI",
        "TAH",
        "SNW",
        "LEK",
        "TIK"
      ],
      "stopCount": 16,
      "relationId": 3679916
    },
    {
      "provider": "LRT",
      "id": "OSM-LRT:610:6481420",
      "route": "610",
      "bound": "1",
      "serviceType": "1",
      "origin": "元朗",
      "destination": "屯門碼頭",
      "originEn": "Yuen Long",
      "destinationEn": "Tuen Mun Ferry Pier",
      "stopIds": [
        "YUL",
        "TTR",
        "HLR",
        "FNR",
        "SPW",
        "PIS",
        "TFT",
        "HSK",
        "CUW",
        "NAW",
        "LAT",
        "SIH",
        "TMH",
        "AFF",
        "NGW",
        "TAI",
        "TAH",
        "SHI",
        "MIK",
        "TWN",
        "TSS",
        "LUM",
        "LRD",
        "BUT",
        "MEG",
        "FEP"
      ],
      "stopCount": 26,
      "relationId": 6481420
    },
    {
      "provider": "LRT",
      "id": "OSM-LRT:610:3680161",
      "route": "610",
      "bound": "0",
      "serviceType": "1",
      "origin": "屯門碼頭",
      "destination": "元朗",
      "originEn": "Tuen Mun Ferry Pier",
      "destinationEn": "Yuen Long",
      "stopIds": [
        "FEP",
        "MEG",
        "BUT",
        "LRD",
        "LUM",
        "TSS",
        "TWN",
        "MIK",
        "SHI",
        "TAH",
        "TAI",
        "NGW",
        "AFF",
        "TMH",
        "SIH",
        "LAT",
        "NAW",
        "CUW",
        "HSK",
        "TFT",
        "PIS",
        "SPW",
        "FNR",
        "HLR",
        "TTR",
        "YUL"
      ],
      "stopCount": 26,
      "relationId": 3680161
    },
    {
      "provider": "LRT",
      "id": "OSM-LRT:614:3680323",
      "route": "614",
      "bound": "1",
      "serviceType": "1",
      "origin": "元朗",
      "destination": "屯門碼頭",
      "originEn": "Yuen Long",
      "destinationEn": "Tuen Mun Ferry Pier",
      "stopIds": [
        "YUL",
        "TTR",
        "HLR",
        "FNR",
        "SPW",
        "PIS",
        "TFT",
        "HSK",
        "CUW",
        "NAW",
        "LAT",
        "SIH",
        "FUT",
        "PRV",
        "SAH",
        "HFT",
        "PUI",
        "TCE",
        "ONT",
        "SIL",
        "GOG",
        "TMS",
        "SIU",
        "FEP"
      ],
      "stopCount": 24,
      "relationId": 3680323
    },
    {
      "provider": "LRT",
      "id": "OSM-LRT:614:6485194",
      "route": "614",
      "bound": "0",
      "serviceType": "1",
      "origin": "屯門碼頭",
      "destination": "元朗",
      "originEn": "Tuen Mun Ferry Pier",
      "destinationEn": "Yuen Long",
      "stopIds": [
        "FEP",
        "SIU",
        "TMS",
        "GOG",
        "SIL",
        "ONT",
        "TCE",
        "PUI",
        "HFT",
        "SAH",
        "PRV",
        "FUT",
        "SIH",
        "LAT",
        "NAW",
        "CUW",
        "HSK",
        "TFT",
        "PIS",
        "SPW",
        "FNR",
        "HLR",
        "TTR",
        "YUL"
      ],
      "stopCount": 24,
      "relationId": 6485194
    },
    {
      "provider": "LRT",
      "id": "OSM-LRT:614P:5955256",
      "route": "614P",
      "bound": "1",
      "serviceType": "1",
      "origin": "兆康",
      "destination": "兆禧",
      "originEn": "Siu Hong",
      "destinationEn": "Siu Hei",
      "stopIds": [
        "SIH",
        "FUT",
        "PRV",
        "SAH",
        "HFT",
        "PUI",
        "TCE",
        "ONT",
        "SIL",
        "GOG",
        "TMS",
        "SIU"
      ],
      "stopCount": 12,
      "relationId": 5955256
    },
    {
      "provider": "LRT",
      "id": "OSM-LRT:614P:5955257",
      "route": "614P",
      "bound": "0",
      "serviceType": "1",
      "origin": "屯門碼頭",
      "destination": "兆康",
      "originEn": "Tuen Mun Ferry Pier",
      "destinationEn": "Siu Hong",
      "stopIds": [
        "FEP",
        "SIU",
        "TMS",
        "GOG",
        "SIL",
        "ONT",
        "TCE",
        "PUI",
        "HFT",
        "SAH",
        "PRV",
        "FUT",
        "SIH"
      ],
      "stopCount": 13,
      "relationId": 5955257
    },
    {
      "provider": "LRT",
      "id": "OSM-LRT:615:3680520",
      "route": "615",
      "bound": "1",
      "serviceType": "1",
      "origin": "元朗",
      "destination": "屯門碼頭",
      "originEn": "Yuen Long",
      "destinationEn": "Tuen Mun Ferry Pier",
      "stopIds": [
        "YUL",
        "TTR",
        "HLR",
        "FNR",
        "SPW",
        "PIS",
        "TFT",
        "HSK",
        "CUW",
        "NAW",
        "LAT",
        "SIH",
        "CHC",
        "KIS",
        "TIK",
        "LEK",
        "SNW",
        "SHI",
        "MIK",
        "TWN",
        "TSS",
        "LUM",
        "LRD",
        "BUT",
        "MEG",
        "FEP"
      ],
      "stopCount": 26,
      "relationId": 3680520
    },
    {
      "provider": "LRT",
      "id": "OSM-LRT:615:6481434",
      "route": "615",
      "bound": "0",
      "serviceType": "1",
      "origin": "屯門碼頭",
      "destination": "元朗",
      "originEn": "Tuen Mun Ferry Pier",
      "destinationEn": "Yuen Long",
      "stopIds": [
        "FEP",
        "MEG",
        "BUT",
        "LRD",
        "LUM",
        "TSS",
        "TWN",
        "MIK",
        "SHI",
        "SNW",
        "LEK",
        "TIK",
        "KIS",
        "CHC",
        "SIH",
        "LAT",
        "NAW",
        "CUW",
        "HSK",
        "TFT",
        "PIS",
        "SPW",
        "FNR",
        "HLR",
        "TTR",
        "YUL"
      ],
      "stopCount": 26,
      "relationId": 6481434
    },
    {
      "provider": "LRT",
      "id": "OSM-LRT:615P:5955258",
      "route": "615P",
      "bound": "1",
      "serviceType": "1",
      "origin": "兆康",
      "destination": "屯門碼頭",
      "originEn": "Siu Hong",
      "destinationEn": "Tuen Mun Ferry Pier",
      "stopIds": [
        "SIH",
        "KEL",
        "CHC",
        "KIS",
        "TIK",
        "LEK",
        "SNW",
        "SHI",
        "MIK",
        "TWN",
        "TSS",
        "LUM",
        "LRD",
        "BUT",
        "MEG",
        "FEP"
      ],
      "stopCount": 16,
      "relationId": 5955258
    },
    {
      "provider": "LRT",
      "id": "OSM-LRT:615P:5955259",
      "route": "615P",
      "bound": "0",
      "serviceType": "1",
      "origin": "屯門碼頭",
      "destination": "兆康",
      "originEn": "Tuen Mun Ferry Pier",
      "destinationEn": "Siu Hong",
      "stopIds": [
        "FEP",
        "MEG",
        "BUT",
        "LRD",
        "LUM",
        "TSS",
        "TWN",
        "MIK",
        "SHI",
        "SNW",
        "LEK",
        "TIK",
        "KIS",
        "CHC",
        "KEL",
        "SIH"
      ],
      "stopCount": 16,
      "relationId": 5955259
    },
    {
      "provider": "LRT",
      "id": "OSM-LRT:705:2941692",
      "route": "705",
      "bound": "0",
      "serviceType": "1",
      "origin": "天水圍",
      "destination": "天水圍",
      "originEn": "Tin Shui Wai",
      "destinationEn": "Tin Shui Wai",
      "stopIds": [
        "TIS",
        "TIT",
        "TIW",
        "GIN",
        "TWI",
        "TYT",
        "TISU",
        "WEP",
        "TIH",
        "TIAT",
        "TIF",
        "CHF",
        "TSH",
        "LOC",
        "TIY",
        "TIS"
      ],
      "stopCount": 16,
      "relationId": 2941692
    },
    {
      "provider": "LRT",
      "id": "OSM-LRT:706:2941790",
      "route": "706",
      "bound": "0",
      "serviceType": "1",
      "origin": "天水圍",
      "destination": "天水圍",
      "originEn": "Tin Shui Wai",
      "destinationEn": "Tin Shui Wai",
      "stopIds": [
        "TIS",
        "TIY",
        "LOC",
        "TSH",
        "CHF",
        "TIF",
        "TIAT",
        "TIH",
        "WEP",
        "TISU",
        "TYT",
        "TWI",
        "GIN",
        "TIW",
        "TIT",
        "TIS"
      ],
      "stopCount": 16,
      "relationId": 2941790
    },
    {
      "provider": "LRT",
      "id": "OSM-LRT:751:2926506",
      "route": "751",
      "bound": "1",
      "serviceType": "1",
      "origin": "天逸",
      "destination": "友愛",
      "originEn": "Tin Yat",
      "destinationEn": "Yau Oi",
      "stopIds": [
        "TIAT",
        "TIF",
        "CHF",
        "CHE",
        "TWI",
        "GIN",
        "TIW",
        "TIT",
        "TIS",
        "HMT",
        "HSK",
        "CUW",
        "NAW",
        "LAT",
        "SIH",
        "TMH",
        "AFF",
        "CYB",
        "HOT",
        "TUM",
        "TCE",
        "YAO"
      ],
      "stopCount": 22,
      "relationId": 2926506
    },
    {
      "provider": "LRT",
      "id": "OSM-LRT:751:6485218",
      "route": "751",
      "bound": "0",
      "serviceType": "1",
      "origin": "友愛",
      "destination": "天逸",
      "originEn": "Yau Oi",
      "destinationEn": "Tin Yat",
      "stopIds": [
        "YAO",
        "ONT",
        "TCE",
        "TUM",
        "HOT",
        "CYB",
        "AFF",
        "TMH",
        "SIH",
        "LAT",
        "NAW",
        "CUW",
        "HSK",
        "HMT",
        "TIS",
        "TIT",
        "TIW",
        "GIN",
        "CHE",
        "CHF",
        "TIF",
        "TIAT"
      ],
      "stopCount": 22,
      "relationId": 6485218
    },
    {
      "provider": "LRT",
      "id": "OSM-LRT:761P:6485221",
      "route": "761P",
      "bound": "1",
      "serviceType": "1",
      "origin": "天逸",
      "destination": "元朗",
      "originEn": "Tin Yat",
      "destinationEn": "Yuen Long",
      "stopIds": [
        "TIAT",
        "TIF",
        "CHF",
        "TSH",
        "LOC",
        "TIY",
        "HMT",
        "TFT",
        "PIS",
        "SPW",
        "FNR",
        "HLR",
        "TTR",
        "YUL"
      ],
      "stopCount": 14,
      "relationId": 6485221
    },
    {
      "provider": "LRT",
      "id": "OSM-LRT:761P:2942633",
      "route": "761P",
      "bound": "0",
      "serviceType": "1",
      "origin": "元朗",
      "destination": "天逸",
      "originEn": "Yuen Long",
      "destinationEn": "Tin Yat",
      "stopIds": [
        "YUL",
        "TTR",
        "HLR",
        "FNR",
        "SPW",
        "PIS",
        "TFT",
        "HMT",
        "TIY",
        "LOC",
        "TSH",
        "CHF",
        "TIF",
        "TIAT"
      ],
      "stopCount": 14,
      "relationId": 2942633
    }
  ]
}
